'@changeset': 84548367
'@id': 158287236
nd:
    -
        '@id': 1705154447
        '@lat': 57.6999889
        '@lon': 11.9784874
    -
        '@id': 845244468
        '@lat': 57.6998698
        '@lon': 11.9782907
    -
        '@id': 1705154305
        '@lat': 57.6997985
        '@lon': 11.9784304
    -
        '@id': 1705154257
        '@lat': 57.6997532
        '@lon': 11.9785192
    -
        '@id': 1705154278
        '@lat': 57.6997673
        '@lon': 11.9785435
    -
        '@id': 1705154215
        '@lat': 57.6997308
        '@lon': 11.9786182
    -
        '@id': 1705154318
        '@lat': 57.6998366
        '@lon': 11.9787993
    -
        '@id': 7475264880
        '@lat': 57.6999118
        '@lon': 11.9786452
        tag:
            -
                '@k': entrance
                '@v': 'yes'
    -
        '@id': 1705154447
        '@lat': 57.6999889
        '@lon': 11.9784874
tag:
    -
        '@k': 'addr:city'
        '@v': Göteborg
    -
        '@k': 'addr:country'
        '@v': SE
    -
        '@k': 'addr:housenumber'
        '@v': '27'
    -
        '@k': 'addr:postcode'
        '@v': '411 35'
    -
        '@k': 'addr:street'
        '@v': 'Södra Vägen'
    -
        '@k': building
        '@v': 'yes'
    -
        '@k': name
        '@v': Läkarhuset
'@timestamp': '2020-05-03T06:24:59+00:00'
'@uid': 953001
'@user': tomasy
'@version': 5
'@visible': true
